{
"type": "FeatureCollection",
"name": "Transit_Rail_Stations",
"crs": { "type": "name", "properties": { "name": "urn:ogc:def:crs:OGC:1.3:CRS84" } },
"features": [
{ "type": "Feature", "properties": { "OBJECTID": 1, "STATION": "Decatur", "Stn_Code": "E6", "Stn_Site": "http://www.itsmarta.com/getthere/stations/decatur.htm", "Extrude": 100, "GlobalID": "{8580187C-665E-47DD-87C6-A0C9C500B113}", "last_edited_date": null }, "geometry": { "type": "Point", "coordinates": [ -84.295376186918702, 33.774523502131338 ] } },
{ "type": "Feature", "properties": { "OBJECTID": 2, "STATION": "Avondale", "Stn_Code": "E7", "Stn_Site": "http://www.itsmarta.com/getthere/stations/avondale.htm", "Extrude": 100, "GlobalID": "{2ED7EC52-BD69-4B51-A859-6548477EA29B}", "last_edited_date": null }, "geometry": { "type": "Point", "coordinates": [ -84.28233754763869, 33.775030857776713 ] } },
{ "type": "Feature", "properties": { "OBJECTID": 3, "STATION": "Chamblee", "Stn_Code": "NE9", "Stn_Site": "http://www.itsmarta.com/getthere/stations/chamblee.htm", "Extrude": 100, "GlobalID": "{4A2A920F-B4D7-4720-9A0D-1F0633981AC3}", "last_edited_date": null }, "geometry": { "type": "Point", "coordinates": [ -84.306324376764394, 33.887430936043835 ] } },
{ "type": "Feature", "properties": { "OBJECTID": 4, "STATION": "Lakewood-Ft. McPherson", "Stn_Code": "S4", "Stn_Site": "http://www.itsmarta.com/getthere/stations/lakewood.htm", "Extrude": 100, "GlobalID": "{079686C9-BC4D-47EF-A03D-1AC588F90C39}", "last_edited_date": null }, "geometry": { "type": "Point", "coordinates": [ -84.428944030967699, 33.700331434235736 ] } },
{ "type": "Feature", "properties": { "OBJECTID": 5, "STATION": "Oakland City", "Stn_Code": "S3", "Stn_Site": "http://www.itsmarta.com/getthere/stations/oakland.htm", "Extrude": 100, "GlobalID": "{929088B5-0B87-4557-A5B5-3239FE62D857}", "last_edited_date": null }, "geometry": { "type": "Point", "coordinates": [ -84.425159851448228, 33.717032182767014 ] } },
{ "type": "Feature", "properties": { "OBJECTID": 6, "STATION": "West End", "Stn_Code": "S2", "Stn_Site": "http://www.itsmarta.com/getthere/stations/westend.htm", "Extrude": 100, "GlobalID": "{6647E142-3B66-440B-87C9-D68C4A7DA75A}", "last_edited_date": null }, "geometry": { "type": "Point", "coordinates": [ -84.413669981371271, 33.735823386471701 ] } },
{ "type": "Feature", "properties": { "OBJECTID": 7, "STATION": "Arts Center", "Stn_Code": "N5", "Stn_Site": "http://www.itsmarta.com/getthere/stations/artscenter.htm", "Extrude": 100, "GlobalID": "{F1A7C10D-20CD-407B-AE02-79E23C623031}", "last_edited_date": null }, "geometry": { "type": "Point", "coordinates": [ -84.386806878182199, 33.789084201961117 ] } },
{ "type": "Feature", "properties": { "OBJECTID": 8, "STATION": "Lindbergh Center", "Stn_Code": "N6", "Stn_Site": "http://www.itsmarta.com/getthere/stations/lindbergh.htm", "Extrude": 100, "GlobalID": "{D8754D18-BFAE-47E5-8D3D-3D52043A8D29}", "last_edited_date": null }, "geometry": { "type": "Point", "coordinates": [ -84.369533925025323, 33.822485699019609 ] } },
{ "type": "Feature", "properties": { "OBJECTID": 9, "STATION": "Kensington", "Stn_Code": "E8", "Stn_Site": "http://www.itsmarta.com/getthere/stations/kensington.htm", "Extrude": 100, "GlobalID": "{5D981CD6-869D-4DC1-85DB-989B73D4AAC3}", "last_edited_date": null }, "geometry": { "type": "Point", "coordinates": [ -84.251919143200453, 33.772597081800392 ] } },
{ "type": "Feature", "properties": { "OBJECTID": 10, "STATION": "Georgia State", "Stn_Code": "E1", "Stn_Site": "http://www.itsmarta.com/getthere/stations/gastate.htm", "Extrude": 100, "GlobalID": "{1F17B390-B126-42B8-B3E6-65610C92EF3B}", "last_edited_date": null }, "geometry": { "type": "Point", "coordinates": [ -84.385845571589357, 33.749979731583188 ] } },
{ "type": "Feature", "properties": { "OBJECTID": 11, "STATION": "King Memorial", "Stn_Code": "E2", "Stn_Site": "http://www.itsmarta.com/getthere/stations/king.htm", "Extrude": 100, "GlobalID": "{BC0FC88A-A5CB-4E30-8D84-B5810631DDC4}", "last_edited_date": null }, "geometry": { "type": "Point", "coordinates": [ -84.375545886146838, 33.749808071084495 ] } },
{ "type": "Feature", "properties": { "OBJECTID": 12, "STATION": "Inman Park-Reynoldstown", "Stn_Code": "E3", "Stn_Site": "http://www.itsmarta.com/getthere/stations/inman.htm", "Extrude": 100, "GlobalID": "{E8A785A9-B3B9-47F9-A650-3C9FD0CD36FF}", "last_edited_date": null }, "geometry": { "type": "Point", "coordinates": [ -84.352756878367757, 33.757410764920273 ] } },
{ "type": "Feature", "properties": { "OBJECTID": 13, "STATION": "Edgewood-Candler Park", "Stn_Code": "E4", "Stn_Site": "http://www.itsmarta.com/getthere/stations/edgewood.htm", "Extrude": 100, "GlobalID": "{2DBAFA91-536C-42DB-90D5-CA678FBB5F49}", "last_edited_date": null }, "geometry": { "type": "Point", "coordinates": [ -84.33988608658737, 33.761805297160464 ] } },
{ "type": "Feature", "properties": { "OBJECTID": 14, "STATION": "East Lake", "Stn_Code": "E5", "Stn_Site": "http://www.itsmarta.com/getthere/stations/eastlake.htm", "Extrude": 100, "GlobalID": "{104FA3C3-6C31-4B6E-BA20-77E896BE94B6}", "last_edited_date": null }, "geometry": { "type": "Point", "coordinates": [ -84.313053498038897, 33.76511264129406 ] } },
{ "type": "Feature", "properties": { "OBJECTID": 15, "STATION": "Indian Creek", "Stn_Code": "E9", "Stn_Site": "http://www.itsmarta.com/getthere/stations/indiancreek.htm", "Extrude": 100, "GlobalID": "{92244875-1E55-4B0D-9FA3-5D45C1C9E376}", "last_edited_date": null }, "geometry": { "type": "Point", "coordinates": [ -84.229664192156406, 33.769739873694917 ] } },
{ "type": "Feature", "properties": { "OBJECTID": 16, "STATION": "Vine City", "Stn_Code": "W2", "Stn_Site": "http://www.itsmarta.com/getthere/stations/vinecity.htm", "Extrude": 100, "GlobalID": "{753BE140-6746-4741-8BEA-16C6C816A5F4}", "last_edited_date": null }, "geometry": { "type": "Point", "coordinates": [ -84.404735958550702, 33.756464718019991 ] } },
{ "type": "Feature", "properties": { "OBJECTID": 17, "STATION": "Ashby", "Stn_Code": "W3", "Stn_Site": "http://www.itsmarta.com/getthere/stations/ashby.htm", "Extrude": 100, "GlobalID": "{20895482-9F15-42A0-993F-9E71287B9687}", "last_edited_date": null }, "geometry": { "type": "Point", "coordinates": [ -84.416790405862727, 33.756281612023329 ] } },
{ "type": "Feature", "properties": { "OBJECTID": 18, "STATION": "Bankhead", "Stn_Code": "P4", "Stn_Site": "http://www.itsmarta.com/getthere/stations/bankhead.htm", "Extrude": 100, "GlobalID": "{5B85F7F3-EEA9-4CA8-803B-D839373F0E57}", "last_edited_date": null }, "geometry": { "type": "Point", "coordinates": [ -84.428936405425048, 33.772146940575396 ] } },
{ "type": "Feature", "properties": { "OBJECTID": 19, "STATION": "West Lake", "Stn_Code": "W4", "Stn_Site": "http://www.itsmarta.com/getthere/stations/westlake.htm", "Extrude": 100, "GlobalID": "{8F179562-1238-418E-872C-2A24EF75979B}", "last_edited_date": null }, "geometry": { "type": "Point", "coordinates": [ -84.445385383878289, 33.753248925490148 ] } },
{ "type": "Feature", "properties": { "OBJECTID": 20, "STATION": "Hamilton E. Holmes", "Stn_Code": "W5", "Stn_Site": "http://www.itsmarta.com/getthere/stations/holmes.htm", "Extrude": 100, "GlobalID": "{13E03153-A5EB-4678-8BB1-62BB339F8BF9}", "last_edited_date": null }, "geometry": { "type": "Point", "coordinates": [ -84.470440322741837, 33.754412407338137 ] } },
{ "type": "Feature", "properties": { "OBJECTID": 21, "STATION": "Midtown", "Stn_Code": "N4", "Stn_Site": "http://www.itsmarta.com/getthere/stations/midtown.htm", "Extrude": 100, "GlobalID": "{F9B2E211-1B54-45AE-BB93-EE74E355BE2F}", "last_edited_date": null }, "geometry": { "type": "Point", "coordinates": [ -84.386455925516586, 33.780764345314722 ] } },
{ "type": "Feature", "properties": { "OBJECTID": 22, "STATION": "Dunwoody", "Stn_Code": "N9", "Stn_Site": "http://www.itsmarta.com/getthere/stations/dunwoody.htm", "Extrude": 100, "GlobalID": "{68CBB1D6-A40B-4AF0-98B3-17ECDEC829AF}", "last_edited_date": null }, "geometry": { "type": "Point", "coordinates": [ -84.344417956683358, 33.921072756960996 ] } },
{ "type": "Feature", "properties": { "OBJECTID": 23, "STATION": "Medical Center", "Stn_Code": "N8", "Stn_Site": "http://www.itsmarta.com/getthere/stations/medcenter.htm", "Extrude": 100, "GlobalID": "{0C1E1AA9-605A-4F87-B1F9-26F143DE332E}", "last_edited_date": null }, "geometry": { "type": "Point", "coordinates": [ -84.351459889220124, 33.910559449008858 ] } },
{ "type": "Feature", "properties": { "OBJECTID": 24, "STATION": "Sandy Springs", "Stn_Code": "N10", "Stn_Site": "http://www.itsmarta.com/getthere/stations/sandysprings.htm", "Extrude": 100, "GlobalID": "{ECA99121-A2A9-4A2D-B919-201EE72B09E7}", "last_edited_date": null }, "geometry": { "type": "Point", "coordinates": [ -84.353153616391296, 33.932612218512702 ] } },
{ "type": "Feature", "properties": { "OBJECTID": 25, "STATION": "North Springs", "Stn_Code": "N11", "Stn_Site": "http://www.itsmarta.com/getthere/stations/northsprings.htm", "Extrude": 100, "GlobalID": "{802AC329-A25A-4C9C-96BD-A45AE5BBA647}", "last_edited_date": null }, "geometry": { "type": "Point", "coordinates": [ -84.357319267917816, 33.943823615429608 ] } },
{ "type": "Feature", "properties": { "OBJECTID": 26, "STATION": "Buckhead", "Stn_Code": "N7", "Stn_Site": "http://www.itsmarta.com/getthere/stations/buckhead.htm", "Extrude": 100, "GlobalID": "{C456637A-3F80-4930-AB9A-3A160C67B76C}", "last_edited_date": null }, "geometry": { "type": "Point", "coordinates": [ -84.36765709505481, 33.847773332241758 ] } },
{ "type": "Feature", "properties": { "OBJECTID": 27, "STATION": "Lenox", "Stn_Code": "NE7", "Stn_Site": "http://www.itsmarta.com/getthere/stations/lenox.htm", "Extrude": 100, "GlobalID": "{227DCC7C-3B6E-491E-8DAE-DE7866516608}", "last_edited_date": null }, "geometry": { "type": "Point", "coordinates": [ -84.356914904114788, 33.845961350913434 ] } },
{ "type": "Feature", "properties": { "OBJECTID": 28, "STATION": "Brookhaven", "Stn_Code": "NE8", "Stn_Site": "http://www.itsmarta.com/getthere/stations/brookhaven.htm", "Extrude": 100, "GlobalID": "{FE96F79D-DEAD-45B8-A98D-406BE6ED7968}", "last_edited_date": null }, "geometry": { "type": "Point", "coordinates": [ -84.339268110338168, 33.859976552238557 ] } },
{ "type": "Feature", "properties": { "OBJECTID": 29, "STATION": "Doraville", "Stn_Code": "NE10", "Stn_Site": "http://www.itsmarta.com/getthere/stations/doraville.htm", "Extrude": 100, "GlobalID": "{14A585A5-38A7-44EF-8A7C-6CEE167C5D65}", "last_edited_date": null }, "geometry": { "type": "Point", "coordinates": [ -84.281010039437945, 33.902392182594177 ] } },
{ "type": "Feature", "properties": { "OBJECTID": 30, "STATION": "North Avenue", "Stn_Code": "N3", "Stn_Site": "http://www.itsmarta.com/getthere/stations/northave.htm", "Extrude": 100, "GlobalID": "{9ED4A788-1ECF-4E31-9CB0-24C378ECA378}", "last_edited_date": null }, "geometry": { "type": "Point", "coordinates": [ -84.386776359045143, 33.77157473782983 ] } },
{ "type": "Feature", "properties": { "OBJECTID": 31, "STATION": "Civic Center", "Stn_Code": "N2", "Stn_Site": "http://www.itsmarta.com/getthere/stations/civiccenter.htm", "Extrude": 100, "GlobalID": "{8904A927-269D-4398-8732-CD64BE750095}", "last_edited_date": null }, "geometry": { "type": "Point", "coordinates": [ -84.387485892942536, 33.766386748064846 ] } },
{ "type": "Feature", "properties": { "OBJECTID": 32, "STATION": "Peachtree Center", "Stn_Code": "N1", "Stn_Site": "http://www.itsmarta.com/getthere/stations/peachtree.htm", "Extrude": 100, "GlobalID": "{94CC526B-1AEB-4F44-AADC-ACC5A4FD3BB8}", "last_edited_date": null }, "geometry": { "type": "Point", "coordinates": [ -84.387569815828471, 33.759684324033309 ] } },
{ "type": "Feature", "properties": { "OBJECTID": 33, "STATION": "Five Points", "Stn_Code": "Five", "Stn_Site": "http://www.itsmarta.com/getthere/stations/5pts.htm", "Extrude": 100, "GlobalID": "{33CD2A0C-E59B-409C-B745-C57C11477AE5}", "last_edited_date": null }, "geometry": { "type": "Point", "coordinates": [ -84.391712577744741, 33.753836391155488 ] } },
{ "type": "Feature", "properties": { "OBJECTID": 34, "STATION": "Dome/GWCC/Philips/CNN", "Stn_Code": "W1", "Stn_Site": "http://www.itsmarta.com/getthere/stations/dome.htm", "Extrude": 100, "GlobalID": "{EFC1F792-49EB-402B-A3DF-BEFCA8C86779}", "last_edited_date": null }, "geometry": { "type": "Point", "coordinates": [ -84.397404108350642, 33.756178615401474 ] } },
{ "type": "Feature", "properties": { "OBJECTID": 35, "STATION": "Garnett", "Stn_Code": "S1", "Stn_Site": "http://www.itsmarta.com/getthere/stations/garnett.htm", "Extrude": 100, "GlobalID": "{DCDEC63C-8D34-4490-979B-165BF577FB64}", "last_edited_date": null }, "geometry": { "type": "Point", "coordinates": [ -84.395588311892652, 33.748800989426655 ] } },
{ "type": "Feature", "properties": { "OBJECTID": 36, "STATION": "Airport", "Stn_Code": "S7", "Stn_Site": "http://www.itsmarta.com/getthere/stations/airport.htm", "Extrude": 100, "GlobalID": "{928106F8-7B91-4E04-BC01-2D485A6C085E}", "last_edited_date": null }, "geometry": { "type": "Point", "coordinates": [ -84.446178835211327, 33.640688629660204 ] } },
{ "type": "Feature", "properties": { "OBJECTID": 37, "STATION": "College Park", "Stn_Code": "S6", "Stn_Site": "http://www.itsmarta.com/getthere/stations/collegepark.htm", "Extrude": 100, "GlobalID": "{7AB182E9-6633-46BE-8D09-40282B027FC8}", "last_edited_date": null }, "geometry": { "type": "Point", "coordinates": [ -84.448803348300018, 33.651533816178834 ] } },
{ "type": "Feature", "properties": { "OBJECTID": 38, "STATION": "East Point", "Stn_Code": "S5", "Stn_Site": "http://www.itsmarta.com/getthere/stations/eastpoint.htm", "Extrude": 100, "GlobalID": "{C6157121-D2B2-4E34-B863-AD8CFCDE8012}", "last_edited_date": null }, "geometry": { "type": "Point", "coordinates": [ -84.440800112533367, 33.676874855468697 ] } }
]
}
